[
	{
		"id": "loc-0",
		"street1": "200 Oracle Parkway",
		"street2": "",
		"city": "Redwood Shores",
		"state": "CA",
		"zip": "94065",
		"country": "USA",
		"latitude": "37.530737",
		"longitude": "-122.265557"
	},
	{
		"id": "loc-1",
		"street1": "100 Main Street",
		"street2": "",
		"city": "San Francisco",
		"state": "CA",
		"zip": "94135",
		"country": "USA",
		"latitude": "37.791826",
		"longitude": "-122.394953"
	},
	{
		"id": "loc-2",
		"street1": "300 Second Street",
		"street2": "",
		"city": "Fremont",
		"state": "CA",
		"zip": "94536",
		"country": "USA",
		"latitude": "37.552713",
		"longitude": "-121.994713"
	},
	{
		"id": "loc-3",
		"street1": "200 First Street",
		"street2": "",
		"city": "Livermore",
		"state": "CA",
		"zip": "94566",
		"country": "USA",
		"latitude": "37.660406",
		"longitude": "-121.876038"
	},
	{
		"id": "loc-4",
		"street1": "100 Park Street",
		"street2": "",
		"city": "Alameda",
		"state": "CA",
		"zip": "94501",
		"country": "USA",
		"latitude": "37.763389",
		"longitude": "-122.243514"
	},
	{
		"id": "loc-5",
		"street1": "4500 Broadway",
		"street2": "",
		"city": "Oakland",
		"state": "CA",
		"zip": "94611",
		"country": "USA",
		"latitude": "37.832892",
		"longitude": "-122.253260"
	},
	{
		"id": "loc-6",
		"street1": "4226 Piedmont Ave",
		"street2": "",
		"city": "Oakland",
		"state": "CA",
		"zip": "94611",
		"country": "USA",
		"latitude": "37.827911",
		"longitude": "-122.249982"
	},
	{
		"id": "loc-7",
		"street1": "5655 College Ave",
		"street2": "",
		"city": "Oakland",
		"state": "CA",
		"zip": "94618",
		"country": "USA",
		"latitude": "37.843693",
		"longitude": "-122.251890"
	},
	{
		"id": "loc-8",
		"street1": "1200 University Ave",
		"street2": "",
		"city": "Berkeley",
		"state": "CA",
		"zip": "94702",
		"country": "USA",
		"latitude": "37.869368",
		"longitude": "-122.289508"
	},
	{
		"id": "loc-9",
		"street1": "2100 Ward Street",
		"street2": "",
		"city": "Berkeley",
		"state": "CA",
		"zip": "94702",
		"country": "USA",
		"latitude": "37.859333",
		"longitude": "-122.266792"
	},
	{
		"id": "loc-10",
		"street1": "2181 Shattuck Avenue",
		"street2": "",
		"city": "Berkeley",
		"state": "CA",
		"zip": "94702",
		"country": "USA",
		"latitude": "37.869801",
		"longitude": "-122.267527"
	},
	{
		"id": "loc-11",
		"street1": "1200 Shattuck Avenue",
		"street2": "",
		"city": "Berkeley",
		"state": "CA",
		"zip": "94702",
		"country": "USA",
		"latitude": "37.869801",
		"longitude": "-122.267527"
	},
	{
		"id": "loc-12",
		"street1": "5655 College Ave",
		"street2": "",
		"city": "Oakland",
		"state": "CA",
		"zip": "94618",
		"country": "USA",
		"latitude": "37.843693",
		"longitude": "-122.251890"
	},
	{
		"id": "loc-13",
		"street1": "4226 Piedmont Ave",
		"street2": "",
		"city": "Oakland",
		"state": "CA",
		"zip": "94611",
		"country": "USA",
		"latitude": "37.827911",
		"longitude": "-122.249982"
	},
	{
		"id": "loc-14",
		"street1": "100 Main Street",
		"street2": "",
		"city": "San Francisco",
		"state": "CA",
		"zip": "94135",
		"country": "USA",
		"latitude": "37.791826",
		"longitude": "-122.394953"
	},
	{
		"id": "loc-15",
		"street1": "300 Second Street",
		"street2": "",
		"city": "Fremont",
		"state": "CA",
		"zip": "94536",
		"country": "USA",
		"latitude": "37.552713",
		"longitude": "-121.994713"
	}
]